id,created_at,unique_code,game_name,owner_id,location,latitude,longitude,is_public,serial_number,verified,registered_at,image_url,privacy_mode,model
9a7df0a9-a5c0-4ace-b955-ce472c5f3580,2026-02-15T16:33:27.326885+00:00,,Pasila Table #1,5031f839-7710-477b-ac80-c4999a212547,Main Hall,,,true,,true,,,public,
d4fee956-719c-420d-b963-86e8890e9977,2026-03-25T05:25:22.677055+00:00,,Subsoccer Jollas,054f6378-95c5-4f5b-a678-745e585a01fc,"Jollaksentie 17, helsinki",60.1660139,25.0549759,true,SS3-V02-25PO111-)LJ(+,false,,https://ujxmmrsmdwrgcwatdhvx.supabase.co/storage/v1/object/public/venue_images/venue_SS3-V02-25PO111-)LJ(+_1774416475212.jpg,public,
dbe5db28-7859-4ce7-9697-2dc5453d6f47,2026-03-25T20:29:03.9384+00:00,,Subsoccer HQ,,Melkonkatu 24,60.1520189,24.882294,true,SS3-V02-25PO111-A97D,false,,,public,
69af6be3-117a-4cf8-a098-13d8611cfa0b,2026-03-25T20:31:57.273359+00:00,,SuperPark Tamisto,054f6378-95c5-4f5b-a678-745e585a01fc,"Kauppatie 13, Vantaa",60.2767283,24.9725679,true,SS3-V02-25PO111-296R6,false,,https://ujxmmrsmdwrgcwatdhvx.supabase.co/storage/v1/object/public/venue_images/venue_SS3-V02-25PO111-296R6_1774470788615.jpg,public,
dc1dd237-5337-4da3-aa84-d9b33249b232,2026-03-25T20:39:52.687037+00:00,,Ideafix Oy,054f6378-95c5-4f5b-a678-745e585a01fc,Härkälenkki 2,60.294643,24.8508884,true,DEMO-SUB-001,false,,https://ujxmmrsmdwrgcwatdhvx.supabase.co/storage/v1/object/public/venue_images/venue_DEMO-SUB-001_1774471207248.jpg,public,
231ff758-e1a4-4006-8e04-e6baead384cd,2026-05-31T17:23:40.170099+00:00,COMMUNITY-1780248219962,CL Final 2026,afc281e9-5bc2-4375-93d8-1274da2eeea3,"Budapest, Hungary",47.4875261136627,19.0763219881715,true,,false,2026-05-31T17:23:39.962+00:00,,public,
fe7b4f60-ecab-4da0-ac9d-6dbbb848fa30,2026-05-31T18:34:56.517109+00:00,COMMUNITY-1780252496060,Intersport Tammisto,afc281e9-5bc2-4375-93d8-1274da2eeea3,"Voimakuja 2, 01510 Vantaa, Finland",60.2792104,24.972766,true,,false,2026-05-31T18:34:56.06+00:00,,public,
f2c029cb-3630-4b0c-93d2-4a4debc1ee9c,2026-06-03T23:33:04.931516+00:00,COMMUNITY-1780529585106,Phillys Sportsbar,97312de8-e368-44ad-a5d1-32379cb8cdd3,Faule Straße 13 18055 Rostock,54.0921139,12.1453931,true,,false,2026-06-03T23:33:05.106+00:00,,public,